City_ID,City,Lat,Lng,Max Temp,Humidity,Cloudiness,Wind Speed,Country,Date
0,grytviken,-54.2811,-36.5092,0.01,80,23,5.73,GS,1682232583
1,vila franca do campo,37.7167,-25.4333,17.23,94,100,6.9,PT,1682232586
2,olonkinbyen,70.9221,-8.7187,-3.4,60,7,6.1,SJ,1682232589
3,torrington,41.8007,-73.1212,11.99,97,100,1.79,US,1682232534
4,port-aux-francais,-49.35,70.2167,8.42,97,100,13.44,TF,1682232593
5,touros,-5.1989,-35.4608,25.02,83,89,5.02,BR,1682232478
6,enewetak,11.3474,162.3373,26.15,85,100,7.65,MH,1682232598
7,quellon,-43.1167,-73.6167,5.14,100,75,1.03,CL,1682232601
8,ushuaia,-54.8,-68.3,5.81,75,20,11.32,AR,1682232422
9,bamboo flat,11.7,92.7167,32.31,59,44,2.31,IN,1682232606
10,urucara,-2.5364,-57.76,22.23,100,100,0.63,BR,1682232609
11,blackmans bay,-43.0167,147.3167,14.74,64,39,1.82,AU,1682232611
12,bethel,41.3712,-73.414,12.47,90,100,2.06,US,1682232414
13,shizukuishi,39.6833,140.9833,12.43,47,90,7.43,JP,1682232616
14,carnarvon,-24.8667,113.6333,26.52,45,100,5.97,AU,1682232619
15,bilibino,68.0546,166.4372,-2.4,86,10,1.59,RU,1682232622
16,socorro,31.6546,-106.3033,17.92,28,20,4.12,US,1682232624
17,jamestown,42.097,-79.2353,6.77,92,20,3.6,US,1682232329
18,waitangi,-43.9535,-176.5597,13.23,90,0,2.4,NZ,1682232630
19,nadym,65.5333,72.5167,0.7,100,100,4.77,RU,1682232632
20,inari,68.906,27.0288,-1.89,58,11,6.57,FI,1682232635
21,wailua homesteads,22.0669,-159.378,24.24,88,20,3.6,US,1682232637
22,fort bragg,35.139,-79.006,13.79,94,0,2.57,US,1682232640
23,port alfred,-33.5906,26.891,17.88,86,100,0.95,ZA,1682232642
24,necochea,-38.5473,-58.7368,9.76,89,1,2.25,AR,1682232645
25,bonthe,7.5264,-12.505,26.0,81,47,1.0,SL,1682232647
26,edinburgh of the seven seas,-37.0676,-12.3116,15.83,72,61,8.93,SH,1682232650
27,ribeira grande,38.5167,-28.7,17.65,100,75,7.72,PT,1682232652
28,lebu,-37.6167,-73.65,11.02,90,12,6.18,CL,1682232612
29,tome acu,-2.4189,-48.1522,22.37,99,100,0.76,BR,1682232657
30,revda,56.801,59.9303,6.1,90,100,2.68,RU,1682232601
31,bardai,11.65,7.2333,26.82,57,5,7.75,NG,1682232662
32,avarua,-21.2078,-159.775,22.03,88,30,1.54,CK,1682232665
33,sao jose da coroa grande,-8.8978,-35.1478,24.57,80,39,2.99,BR,1682232667
34,tiksi,71.6872,128.8694,-4.13,84,13,0.14,RU,1682232670
35,villa gesell,-37.2639,-56.973,12.81,86,18,2.62,AR,1682232672
36,essaouira,31.5125,-9.77,17.51,82,5,9.38,MA,1682232675
37,almeirim,-1.5233,-52.5817,22.98,96,100,0.29,BR,1682232678
38,vernon,50.2581,-119.2691,13.2,54,100,4.63,CA,1682232681
39,dijkot,31.2167,72.9833,32.66,13,0,4.02,PK,1682232683
40,la passe,45.5549,-0.8967,13.88,83,100,9.37,FR,1682232686
41,mandera,3.9366,41.867,27.05,67,93,1.89,KE,1682232688
42,port lincoln,-34.7333,135.8667,19.42,65,0,4.96,AU,1682232691
43,phan rang-thap cham,11.5667,108.9833,33.44,49,7,5.3,VN,1682232511
44,palikir - national government center,6.9248,158.1611,27.63,78,100,4.9,FM,1682232697
45,ouled mimoun,34.9047,-1.0339,11.01,56,38,0.4,DZ,1682232700
46,saipan,15.1355,145.701,30.39,100,40,7.2,MP,1682232702
47,adamstown,-25.066,-130.1015,24.39,89,100,6.23,PN,1682232705
48,igarka,67.4667,86.5833,0.74,100,100,7.84,RU,1682232707
49,takoradi,4.8845,-1.7554,27.3,82,64,4.17,GH,1682232710
50,isafjordur,66.0755,-23.124,0.56,66,9,1.52,IS,1682232712
51,tazovsky,67.4667,78.7,0.7,99,100,5.81,RU,1682232715
52,fort st. john,56.2499,-120.8529,3.94,87,100,2.06,CA,1682232717
53,uricani,45.3373,23.1524,11.03,74,81,1.28,RO,1682232720
54,longyearbyen,78.2186,15.6401,-10.09,67,0,3.6,SJ,1682232722
55,khandyga,62.6667,135.6,0.34,83,100,1.39,RU,1682232725
56,west island,-12.1568,96.8225,28.99,79,75,6.17,CC,1682232728
57,san antonio de pale,-1.4014,5.6325,27.46,79,100,4.91,GQ,1682232730
58,margaret river,-33.95,115.0667,21.05,60,5,4.22,AU,1682232663
59,hasaki,35.7333,140.8333,16.79,41,33,2.96,JP,1682232445
60,hawaiian paradise park,19.5933,-154.9731,22.73,93,100,0.0,US,1682232738
61,punta arenas,-53.15,-70.9167,6.06,81,0,14.4,CL,1682232402
62,nemuro,43.3236,145.575,1.64,97,100,1.82,JP,1682232743
63,dunedin,-45.8742,170.5036,11.56,10,39,9.51,NZ,1682232746
64,greymouth,-42.4667,171.2,14.33,88,100,3.07,NZ,1682232664
65,yarmouth,41.7057,-70.2286,10.64,82,100,6.69,US,1682232751
66,albany,42.6001,-73.9662,11.76,92,100,0.89,US,1682232702
67,parabel',58.6978,81.4825,6.68,74,100,5.63,RU,1682232756
68,iqaluit,63.7506,-68.5145,-0.15,93,100,6.17,CA,1682232759
69,buka,40.8108,69.1986,27.6,16,11,2.49,UZ,1682232762
70,mar del plata,-38.0023,-57.5575,15.53,89,75,0.45,AR,1682232606
71,hamilton,39.1834,-84.5333,4.39,76,0,3.09,US,1682232537
72,thompson,55.7435,-97.8558,-5.91,53,40,1.54,CA,1682232769
73,nilsia,63.2,28.0833,2.07,65,98,3.22,FI,1682232771
74,kone,-21.0595,164.8658,25.03,86,49,2.01,NC,1682232774
75,altai,46.3722,96.2583,2.89,60,100,4.12,MN,1682232776
76,timimoun,29.2639,0.231,23.72,31,69,5.25,DZ,1682232779
77,lugoj,45.6886,21.9031,12.88,62,92,1.45,RO,1682232781
78,gadzhiyevo,69.2551,33.3362,-2.74,77,84,11.0,RU,1682232784
79,qaqortoq,60.7167,-46.0333,-0.7,87,55,1.17,GL,1682232787
80,eynesil,41.0645,39.1438,13.63,87,100,2.21,TR,1682232790
81,puerto ayora,-0.7393,-90.3518,24.19,95,95,0.45,EC,1682232792
82,sao tome,0.3365,6.7273,27.12,81,100,4.03,ST,1682232795
83,hammerfest,70.6634,23.6821,-1.75,80,75,9.26,NO,1682232798
84,vorgashor,67.5833,63.95,-0.14,98,100,8.39,RU,1682232800
85,port elizabeth,-33.918,25.5701,16.84,93,40,1.03,ZA,1682232803
86,georgetown,5.4112,100.3354,32.97,62,20,4.12,MY,1682232714
87,puerto natales,-51.7236,-72.4875,5.19,93,100,3.03,CL,1682232808
88,baiyin,36.5583,104.2081,5.9,68,100,4.48,CN,1682232811
89,bredasdorp,-34.5322,20.0403,17.94,75,37,3.89,ZA,1682232814
90,st. john's,47.5649,-52.7093,3.21,98,100,10.28,CA,1682232796
91,nagqu,31.5,92.0,2.58,36,70,7.75,CN,1682232819
92,saudarkrokur,65.7461,-19.6394,0.78,68,21,0.49,IS,1682232821
93,argo,37.6333,22.7333,15.99,61,5,2.12,GR,1682232824
94,lufilufi,-13.8745,-171.5986,25.88,77,40,5.53,WS,1682232826
95,yeppoon,-23.1333,150.7333,25.88,73,100,10.27,AU,1682232829
96,aasiaat,68.7098,-52.8699,-1.06,98,100,3.54,GL,1682232831
97,haiku-pauwela,20.9219,-156.3051,23.36,78,0,4.12,US,1682232833
98,sechura,-5.5569,-80.8222,26.15,76,100,2.65,PE,1682232836
99,talnakh,69.4865,88.3972,1.23,89,97,6.64,RU,1682232838
100,keflavik,64.0049,-22.5624,4.24,100,100,4.12,IS,1682232841
101,sisimiut,66.9395,-53.6735,-0.54,96,100,4.61,GL,1682232843
102,hadibu,12.65,54.0333,29.74,59,78,0.97,YE,1682232846
103,manay,7.215,126.5397,29.36,74,63,3.79,PH,1682232849
104,ankazobe,-18.3167,47.1167,23.49,65,77,0.21,MG,1682232851
105,el nido,11.1858,119.3956,30.26,69,10,5.16,PH,1682232854
106,egersund,58.4513,5.9997,8.94,92,62,2.61,NO,1682232856
107,kiffa,16.6166,-11.4045,27.54,23,0,2.25,MR,1682232859
108,klyuchi,52.2667,79.1667,13.67,31,84,7.33,RU,1682232862
109,cabo san lucas,22.8909,-109.9124,22.61,54,53,5.74,MX,1682232801
110,kill devil hills,36.0307,-75.676,16.66,92,100,3.6,US,1682232718
111,mont-dore,-22.2833,166.5833,25.99,85,14,1.84,NC,1682232869
112,lokomotivnyy,53.0118,60.5684,11.9,50,88,7.18,RU,1682232872
113,nar'yan-mar,67.6713,53.087,-4.38,85,13,7.59,RU,1682232874
114,chernomorskoye,45.5039,32.6997,12.11,70,100,1.96,UA,1682232877
115,banda,25.4833,80.3333,37.81,10,97,2.07,IN,1682232879
116,yellowknife,62.456,-114.3525,3.29,56,20,3.6,CA,1682232655
117,udachny,66.4167,112.4,-1.51,76,100,3.3,RU,1682232884
118,broken hill,-31.95,141.4333,22.89,33,0,5.99,AU,1682232887
119,berber,18.0216,33.983,36.76,8,5,7.78,SD,1682232889
120,alice springs,-23.7,133.8833,26.75,22,87,3.6,AU,1682232892
121,taoudenni,22.6783,-3.9836,26.65,16,31,3.16,ML,1682232894
122,jaguaruna,-28.615,-49.0256,16.73,93,4,1.53,BR,1682232606
123,port douglas,-16.4833,145.4667,25.56,86,99,8.11,AU,1682232899
124,hanceville,34.0607,-86.7675,11.95,85,17,2.38,US,1682232901
125,mont-tremblant,46.1949,-74.6264,11.77,94,100,1.03,CA,1682232904
126,aykhal,66.0,111.5,-2.55,74,100,4.18,RU,1682232907
127,ancud,-41.8697,-73.8203,7.93,89,100,1.59,CL,1682232909
128,invercargill,-46.4,168.35,11.68,82,69,0.89,NZ,1682232912
129,port mathurin,-19.6833,63.4167,26.33,78,12,7.47,MU,1682232915
130,pontianak,-0.0333,109.3333,27.99,83,75,0.0,ID,1682232917
131,whitehorse,60.7161,-135.0538,4.43,60,75,2.57,CA,1682232920
132,anaconda,46.1285,-112.9423,-1.45,90,20,2.06,US,1682232923
133,shanwei,22.782,115.3475,24.05,82,99,3.48,CN,1682232925
134,malango,-2.9627,119.9001,27.52,67,100,1.87,ID,1682232928
135,merritt,50.1123,-120.7942,4.88,100,100,1.37,CA,1682232931
136,weatherford,32.7593,-97.7972,11.2,65,100,4.02,US,1682232933
137,pervomays'kyy,49.3874,36.2147,12.06,65,61,2.63,UA,1682232936
138,pagar alam,-4.0167,103.2667,26.75,79,97,1.15,ID,1682232787
139,trashigang,27.3331,91.5542,21.73,49,100,1.23,BT,1682232941
140,lockwood,45.8191,-108.4149,1.34,74,0,3.09,US,1682232944
141,puerto aysen,-45.4,-72.7,5.98,98,100,2.01,CL,1682232946
142,yeed,4.55,43.0333,25.5,73,97,1.87,SO,1682232949
143,stanley,54.868,-1.6985,6.51,92,20,1.54,GB,1682232879
144,milliken,40.3294,-104.8552,1.12,82,99,2.38,US,1682232953
145,tsaratanana,-16.7833,47.65,30.27,59,8,0.85,MG,1682232956
146,kerikeri,-35.2268,173.9474,17.17,87,96,2.31,NZ,1682232958
147,ola,59.5833,151.2833,3.97,54,100,10.63,RU,1682232961
148,pandan,14.0453,124.1694,29.41,70,77,3.98,PH,1682232963
149,gaspe,48.8334,-64.4819,0.95,100,0,1.03,CA,1682232966
150,sibu,2.3,111.8167,32.17,74,40,2.06,MY,1682232969
151,vorkuta,67.5,64.0,-0.01,98,100,8.75,RU,1682232971
152,papatowai,-46.5619,169.4708,12.57,73,10,10.81,NZ,1682232974
153,chanderi,24.7167,78.1333,35.51,10,24,1.32,IN,1682232977
154,nuuk,64.1835,-51.7216,3.34,75,100,5.66,GL,1682232686
155,lake havasu city,34.4839,-114.3224,26.0,23,6,3.09,US,1682232966
156,gaalkacyo,6.7697,47.4308,30.33,56,96,3.57,SO,1682232984
157,kingston,17.997,-76.7936,25.53,82,20,2.06,JM,1682232987
158,hotan,37.0997,79.9269,21.95,10,0,2.42,CN,1682232856
159,tralee,52.2704,-9.7026,7.52,89,95,1.89,IE,1682232992
160,tabou,4.423,-7.3528,26.68,86,100,2.77,CI,1682232995
161,ilulissat,69.2167,-51.1,0.01,93,100,0.51,GL,1682232998
162,nakhon phanom,17.3333,104.4167,36.82,28,92,3.59,TH,1682233000
163,salvador,13.8333,-88.9167,22.81,92,22,0.5,SV,1682232962
164,kununurra,-15.7667,128.7333,31.99,27,0,6.17,AU,1682233005
165,sabang,5.8933,95.3214,29.12,71,9,1.86,ID,1682233008
166,uturoa,-16.7333,-151.4333,28.16,78,98,8.34,PF,1682233010
167,nogliki,51.8333,143.1667,-0.22,94,100,5.98,RU,1682233012
168,reggane,26.7158,0.1714,26.25,26,94,6.86,DZ,1682233015
169,sao felix do xingu,-6.6447,-51.995,21.47,98,100,0.43,BR,1682232852
170,mendi,-6.1761,143.6513,16.45,96,97,0.55,PG,1682233020
171,kodiak,57.79,-152.4072,5.73,42,0,4.63,US,1682233022
172,hyesan,41.4017,128.1778,8.53,17,80,6.44,KP,1682233025
173,llerena,38.2354,-6.0739,9.68,67,99,1.8,ES,1682233027
174,kapa'a,22.0752,-159.319,24.5,88,20,3.6,US,1682233030
175,westport,41.1415,-73.3579,14.1,92,100,5.14,US,1682233032
176,arraial do cabo,-22.9661,-42.0278,22.95,72,0,2.71,BR,1682233035
177,melekeok village,7.4957,134.6367,30.31,74,75,3.09,PW,1682233038
178,mudgee,-32.5943,149.5871,20.99,66,4,4.52,AU,1682233041
179,tambacounda,13.7539,-13.7586,30.03,28,0,5.14,SN,1682233043
180,vilyuchinsk,52.9306,158.4028,5.15,92,100,1.2,RU,1682233046
181,dumai,1.6833,101.45,30.66,65,100,1.16,ID,1682233048
182,todos santos,23.45,-110.2167,17.47,85,8,2.71,MX,1682233051
183,badger,64.8,-147.5333,-7.49,57,40,10.29,US,1682233054
184,berezovo,63.9381,65.0419,2.53,92,100,6.7,RU,1682233057
185,susuman,62.7833,148.1667,-3.29,74,62,5.55,RU,1682233060
186,north bay,46.3168,-79.4663,3.01,98,100,3.6,CA,1682233062
187,anadyr,64.75,177.4833,-3.72,74,0,3.0,RU,1682233065
188,nueva concepcion,14.2,-91.3,26.3,78,0,2.63,GT,1682233068
189,tullamore,53.2739,-7.4889,5.63,95,87,1.03,IE,1682233070
190,nalut,30.3333,10.85,17.15,43,6,7.86,LY,1682233073
191,rio gallegos,-51.6226,-69.2181,9.03,71,40,5.66,AR,1682233075
192,christchurch,-43.5333,172.6333,14.39,89,100,3.09,NZ,1682233078
193,ardabil,38.2498,48.2933,15.75,51,0,2.06,IR,1682232781
194,lambarene,-0.7001,10.2406,24.48,89,29,1.46,GA,1682233083
195,college,64.8569,-147.8028,-7.45,57,40,10.29,US,1682233085
196,altos,-5.0381,-42.46,23.17,72,58,1.72,BR,1682233088
197,rezekne,56.5,27.3167,13.9,61,13,3.18,LV,1682233091
198,cole harbour,44.6724,-63.4751,2.62,89,7,2.24,CA,1682233094
199,antsiranana,-12.2787,49.2917,29.42,70,20,5.14,MG,1682233096
200,sitka,57.0531,-135.33,6.94,87,100,1.54,US,1682233099
201,baker city,44.7749,-117.8344,7.02,93,0,0.0,US,1682233070
202,adirampattinam,10.35,79.4,33.3,58,95,5.77,IN,1682233104
203,nytva,57.9404,55.334,15.94,41,21,4.34,RU,1682233106
204,temple,31.0982,-97.3428,14.53,66,100,7.2,US,1682232991
205,port isabel,26.0734,-97.2086,26.02,84,75,6.17,US,1682233111
206,vargashi,55.3556,65.8467,16.75,40,49,6.93,RU,1682233114
207,petropavlovsk-kamchatsky,53.0452,158.6483,4.33,65,75,3.0,RU,1682233116
208,guerrero negro,27.9769,-114.0611,14.99,85,0,4.31,MX,1682233119
209,amga,60.8953,131.9608,0.46,83,100,4.43,RU,1682233121
210,hithadhoo,-0.6,73.0833,29.27,71,100,2.48,MV,1682233086
211,saiha,22.4833,92.9667,32.45,33,100,2.04,IN,1682233126
212,floro,61.5996,5.0328,9.98,57,100,3.6,NO,1682233128
213,granite shoals,30.5891,-98.3839,18.68,74,100,3.09,US,1682233131
214,mooloolaba,-26.6833,153.1167,23.36,72,100,3.58,AU,1682233061
215,dwarka,22.2394,68.9678,29.8,56,0,5.93,IN,1682233136
216,muncar,-8.4333,114.3333,30.26,65,97,3.23,ID,1682233138
217,manokwari,-0.8667,134.0833,27.82,78,84,2.05,ID,1682233141
218,nova sintra,14.8667,-24.7167,20.24,74,5,8.69,CV,1682233143
219,acapulco de juarez,16.8634,-99.8901,26.9,78,40,1.54,MX,1682233055
220,tura,25.5198,90.2201,18.95,91,98,1.88,IN,1682233148
221,chyorny yar,48.0624,46.1091,13.25,70,100,3.44,RU,1682233151
222,severo-yeniseyskiy,60.3725,93.0408,1.98,92,100,3.2,RU,1682233153
223,masterton,-40.9597,175.6575,14.38,89,85,3.06,NZ,1682233156
224,francisco beltrao,-26.0811,-53.055,11.33,93,0,1.0,BR,1682233158
225,semenov,56.7875,44.493,14.61,40,9,2.91,RU,1682233161
226,minot air force base,48.4209,-101.3391,-0.44,85,0,5.66,US,1682233164
227,cobija,-11.0267,-68.7692,23.45,86,87,1.05,BO,1682233166
228,freeport,40.6576,-73.5832,14.99,95,100,3.09,US,1682233169
229,les sables-d'olonne,46.6667,-1.8333,12.44,91,100,7.54,FR,1682233171
230,vicam,27.6333,-110.2833,22.55,30,0,2.34,MX,1682233174
231,beterou,9.1992,2.2586,26.2,78,18,4.62,BJ,1682233176
232,tahoua,14.8888,5.2692,25.99,25,0,1.03,NE,1682233179
233,mangrol,21.1167,70.1167,30.86,49,4,5.61,IN,1682233181
234,bel ombre,-4.6167,55.4167,31.91,66,20,3.6,SC,1682233184
235,katabu,-4.9333,122.5167,31.31,54,99,2.25,ID,1682233186
236,calchaqui,-29.8877,-60.287,16.4,68,100,2.64,AR,1682233189
237,surgana,20.5667,73.6167,33.2,23,2,3.91,IN,1682233191
238,bol,13.4586,14.7147,28.04,56,17,5.12,TD,1682233194
239,chegdomyn,51.1167,133.0167,5.74,56,100,2.7,RU,1682233196
240,urangan,-25.3,152.9,23.44,64,100,11.15,AU,1682233199
241,salinas,36.6777,-121.6555,13.34,80,0,6.17,US,1682233166
242,batticaloa,7.7102,81.6924,30.56,68,100,3.32,LK,1682233208
243,aitape,-3.1374,142.3475,28.97,71,62,2.23,PG,1682233222
244,constantia,44.1833,28.65,14.38,65,72,1.58,RO,1682233204
245,glace bay,46.1969,-59.957,2.77,92,75,3.6,CA,1682233228
246,lihue,21.9789,-159.3672,24.09,86,20,3.6,US,1682233083
247,newman,37.3138,-121.0208,19.05,79,96,1.69,US,1682233234
248,jacobina,-11.1806,-40.5183,20.43,96,100,2.44,BR,1682233238
249,afaahiti,-17.75,-149.2833,26.93,80,97,7.87,PF,1682233240
250,peniche,39.3558,-9.3811,13.58,87,0,2.1,PT,1682233243
251,civril,38.3014,29.7386,12.91,59,97,2.44,TR,1682233245
252,stuttgart,48.7823,9.177,13.69,87,0,2.06,DE,1682233072
253,pangody,65.85,74.4859,0.96,100,100,2.87,RU,1682233251
254,colby,39.3958,-101.0524,-0.54,57,0,0.45,US,1682233253
255,pangkalan brandan,4.0238,98.2782,31.35,60,88,3.47,ID,1682233255
256,hermanus,-34.4187,19.2345,17.36,86,98,5.04,ZA,1682233258
257,vila velha,-20.3297,-40.2925,23.3,83,40,1.34,BR,1682233240
258,arar,30.9753,41.0381,25.01,33,0,3.09,SA,1682233264
259,paita,-5.0892,-81.1144,25.78,80,100,2.05,PE,1682233267
260,atafu village,-8.5421,-172.5159,28.93,73,71,3.21,TK,1682233270
261,archangelos,36.2149,28.1149,17.39,48,6,2.22,GR,1682233272
262,mingshui,36.7167,117.5,11.39,62,100,3.94,CN,1682233275
263,fort mcmurray,56.7268,-111.381,2.73,51,0,3.09,CA,1682233133
264,yamada,39.4667,141.95,10.63,48,97,6.77,JP,1682233280
265,flying fish cove,-10.4217,105.6791,27.55,77,70,7.03,CX,1682233283
266,carolina beach,34.0352,-77.8936,15.03,95,7,5.43,US,1682232988
267,kutum,14.2,24.6667,32.11,15,17,4.03,SD,1682233127
268,joshimath,30.5667,79.5667,18.38,30,34,2.66,IN,1682233291
269,rio grande,-32.035,-52.0986,18.08,88,100,2.35,BR,1682233295
270,saint-pierre,-21.3393,55.4781,29.2,61,0,2.57,RE,1682233298
271,luderitz,-26.6481,15.1594,19.62,42,76,2.78,NA,1682233300
272,mournies,35.4764,24.0092,19.35,82,75,20.58,GR,1682233303
273,campo mourao,-24.0456,-52.3831,13.0,92,0,2.74,BR,1682233305
274,tofol,5.3248,163.0078,28.36,78,100,5.68,FM,1682233308
275,remire-montjoly,4.9167,-52.2667,23.02,100,100,0.0,GF,1682233310
276,kargasok,59.0556,80.8572,3.96,89,100,4.27,RU,1682233313
277,dudinka,69.4058,86.1778,1.46,98,100,8.7,RU,1682233315
278,sinan,34.8262,126.1086,18.06,72,100,4.13,KR,1682233318
279,manacapuru,-3.2997,-60.6206,23.01,98,100,0.88,BR,1682233320
280,san patricio,28.017,-97.5169,23.93,86,67,6.35,US,1682232841
281,fortuna,40.5982,-124.1573,11.86,93,68,1.07,US,1682233326
282,tsiombe,-25.3,45.4833,27.76,58,4,2.16,MG,1682233328
283,adra,36.7496,-3.0206,19.96,62,95,2.02,ES,1682232756
284,inarajan village,13.2736,144.7484,27.66,92,100,6.97,GU,1682233334
285,barentu,15.1139,37.5928,31.51,23,100,1.8,ER,1682233337
286,gaigeturi,33.4644,126.3183,16.03,63,75,10.8,KR,1682233340
287,willows,39.5243,-122.1936,18.18,70,5,1.12,US,1682233343
288,trujillo,-8.116,-79.03,22.98,78,79,2.06,PE,1682233241
289,codrington,-38.2667,141.9667,16.23,71,0,4.67,AU,1682233348
290,sungai penuh,-2.0833,101.3833,24.47,83,100,0.76,ID,1682233351
291,francisco sa,-16.4758,-43.4883,20.07,81,96,3.66,BR,1682233354
292,bandarbeyla,9.4942,50.8122,29.59,55,100,2.74,SO,1682233356
293,buenaventura,3.8801,-77.0312,23.62,92,100,0.75,CO,1682233201
294,tangalle,6.024,80.7911,34.09,74,100,4.57,LK,1682233361
295,alofi,-19.0595,-169.9187,23.94,83,50,1.03,NU,1682233364
296,vale da amoreira,39.0697,-7.6985,10.93,89,0,0.91,PT,1682233367
297,bridgewater,44.3835,-64.5155,4.82,88,95,2.06,CA,1682232921
298,iskateley,67.6803,53.1512,-4.42,85,13,7.62,RU,1682233371
299,concepcion del oro,24.6333,-101.4167,14.79,64,1,2.52,MX,1682233374
300,huarmey,-10.0681,-78.1522,24.33,84,8,3.56,PE,1682233253
301,pervomayskoye,43.919,46.7102,15.45,62,100,4.48,RU,1682233379
302,saryaghash,41.45,69.1667,26.96,16,30,2.39,KZ,1682233381
303,okakarara,-20.5833,17.4333,22.47,49,14,1.2,NA,1682233384
304,ilorin,8.5,4.55,26.2,77,39,5.72,NG,1682233387
305,szigetvar,46.0486,17.8055,14.53,60,14,3.12,HU,1682233389
306,valentin gomez farias,28.2167,-106.5833,15.93,12,0,5.71,MX,1682233392
307,northam,51.0333,-4.2167,7.44,95,99,1.82,GB,1682233395
308,berdigestyakh,62.0989,126.6992,-0.22,82,28,4.7,RU,1682233398
309,ust-nera,64.5667,143.2,-0.48,79,100,2.87,RU,1682233400
310,dobroye,52.8678,39.8109,14.31,45,12,2.38,RU,1682233403
311,prainha,-1.8,-53.48,22.54,99,100,1.0,BR,1682233406
312,liberal,37.0431,-100.921,4.58,56,75,3.09,US,1682233408
313,ternate,0.8,127.4,29.38,69,96,2.65,ID,1682233411
314,kimberley,-28.7323,24.7623,17.83,17,0,1.54,ZA,1682233414
315,egilsstadir,65.2653,-14.3948,-7.05,86,20,1.54,IS,1682233396
316,kollo,13.3043,2.339,29.24,7,1,2.98,NE,1682233419
317,palmer,42.1584,-72.3287,11.8,84,100,3.6,US,1682233421
318,necocli,8.4234,-76.786,24.37,87,100,1.12,CO,1682233424
319,prince rupert,54.3161,-130.3201,7.83,86,100,7.72,CA,1682233224
320,uporovo,56.3109,66.2693,15.39,40,70,4.37,RU,1682233429
321,sakiet sidi youssef,36.2229,8.3555,6.76,43,100,1.68,TN,1682233431
322,la'ie,21.6477,-157.9253,25.56,78,42,2.24,US,1682233434
323,baranovichi,53.1327,26.0139,13.11,57,100,2.32,BY,1682233436
324,fisterra,42.9049,-9.2629,15.57,93,100,6.66,ES,1682233438
325,montalvo,-1.8,-79.3333,23.67,96,100,0.55,EC,1682233441
326,tulagi,-9.0996,160.1476,28.96,72,47,2.89,SB,1682233443
327,kalibo (poblacion),11.7061,122.3644,29.54,66,38,3.52,PH,1682233446
328,greenville,35.6127,-77.3663,14.01,96,0,0.45,US,1682233432
329,auki,-8.7676,160.7034,27.85,77,28,0.33,SB,1682233451
330,namsos,64.4662,11.4957,2.03,55,100,2.57,NO,1682233454
331,lagoa,39.05,-27.9833,15.72,94,100,5.06,PT,1682233393
332,yelizovo,53.1873,158.3805,5.08,65,75,3.13,RU,1682233458
333,veraval,20.9,70.3667,30.98,49,25,5.51,IN,1682233461
334,roleystone,-32.1167,116.0667,26.62,35,0,5.66,AU,1682233463
335,puerto san jose,13.9256,-90.8244,27.42,78,6,4.37,GT,1682233466
336,saraykent,39.6936,35.5111,11.76,61,77,3.81,TR,1682233468
337,raja,8.4596,25.678,28.88,54,100,4.69,SS,1682232925
338,lae,-6.7221,146.9847,28.1,72,25,2.91,PG,1682233473
339,castillos,-34.1667,-53.8333,15.89,94,100,1.49,UY,1682233476
340,ciudad lazaro cardenas,17.9583,-102.2,24.21,82,91,0.64,MX,1682233478
341,port macquarie,-31.4333,152.9167,20.5,78,53,5.51,AU,1682233480
342,daru,-9.0763,143.2092,27.79,86,58,4.95,PG,1682233483
343,the pas,53.8251,-101.2541,-1.99,54,0,1.54,CA,1682233230
344,dorchester,33.1002,-80.3831,16.12,75,0,0.0,US,1682233488
345,zeya,53.75,127.2667,4.73,48,100,3.93,RU,1682233491
346,villarrica,-25.75,-56.4333,13.47,75,0,0.76,PY,1682233494
347,port de pollenca,39.9075,3.0814,18.77,81,0,0.65,ES,1682233497
348,dubbo,-32.25,148.6167,23.07,43,40,7.2,AU,1682233499
349,mount pearl,47.5166,-52.7813,3.03,98,100,8.23,CA,1682233230
350,peterhead,57.5058,-1.7981,7.22,95,100,8.94,GB,1682233504
351,richards bay,-28.783,32.0377,23.27,67,5,3.97,ZA,1682233507
352,celestun,20.8667,-90.4,25.66,74,80,5.62,MX,1682233509
353,woolgoolga,-30.1106,153.2007,18.93,59,69,8.43,AU,1682233512
354,raduzhny,62.0961,77.475,2.99,96,100,2.62,RU,1682233515
355,laguna,38.421,-121.4238,18.55,74,0,1.54,US,1682233517
356,smithers,54.7804,-127.1743,4.18,100,100,0.0,CA,1682233460
357,leszno,51.8403,16.5749,16.69,67,68,4.77,PL,1682233522
358,peace river,56.2501,-117.286,6.17,94,100,1.03,CA,1682233525
359,taltal,-25.4,-70.4833,16.94,84,11,0.93,CL,1682233314
360,tolanaro,-25.0319,46.9987,28.04,69,20,5.14,MG,1682233530
361,nova vicosa,-17.8919,-39.3719,24.19,83,89,7.14,BR,1682233533
362,francistown,-21.17,27.5079,26.02,30,89,0.85,BW,1682233536
363,barakani,-12.1356,44.4317,28.58,70,22,1.11,KM,1682233538
364,dhuusamarreeb,5.535,46.3861,31.37,52,84,3.71,SO,1682233541
365,khash,28.2211,61.2158,27.34,13,100,2.24,IR,1682233543
366,likiep,9.8251,169.3107,27.47,81,90,8.38,MH,1682233545
367,havre,49.5833,0.3333,10.87,93,75,4.63,FR,1682233443
368,panorama,40.5878,23.0315,16.13,80,20,1.34,GR,1682233550
369,vilyuysk,63.7553,121.6247,-0.05,84,23,2.77,RU,1682233553
370,rovaniemi,66.5,25.7167,0.67,40,0,4.12,FI,1682233555
371,baran',54.4764,30.3181,11.99,64,100,2.15,BY,1682233558
372,magistral'nyy,56.1725,107.4458,1.95,53,100,2.82,RU,1682233560
373,naze,28.3667,129.4833,22.51,77,100,8.18,JP,1682233563
374,launceston,-41.45,147.1667,18.8,55,7,5.14,AU,1682233566
375,baruun-urt,46.6806,113.2792,9.55,14,9,1.46,MN,1682233279
376,navoloki,57.4657,41.9634,13.87,49,14,3.21,RU,1682233571
377,sassandra,4.95,-6.0833,25.97,90,100,3.31,CI,1682233287
378,tabas,33.5959,56.9244,29.77,18,99,1.37,IR,1682233576
379,gordon,34.5004,-84.8666,9.91,100,0,0.0,US,1682233444
380,kangding,30.0513,101.9603,16.33,51,100,1.48,CN,1682233582
381,ermoupolis,37.4423,24.9425,18.39,68,20,3.6,GR,1682233585
382,morondava,-20.2833,44.2833,26.18,68,0,2.93,MG,1682233587
383,lerwick,60.1545,-1.1494,5.0,73,100,15.86,GB,1682233590
384,happy valley-goose bay,53.3168,-60.3315,1.17,93,100,0.0,CA,1682233593
385,mariehamn,60.0973,19.9348,5.92,87,0,4.63,AX,1682233595
386,naracoorte,-36.9579,140.7383,21.58,46,0,0.61,AU,1682233598
387,fale old settlement,-9.3852,-171.2468,28.95,74,100,3.85,TK,1682233600
388,poli,-3.3333,36.8,17.76,84,100,1.93,TZ,1682233603
389,marquette,46.5333,-87.6335,-1.31,85,100,3.58,US,1682233605
390,papao,-17.75,-149.55,27.82,85,74,8.94,PF,1682233608
391,alice town,25.7167,-79.3,25.13,69,0,2.81,BS,1682233399
392,retreat,38.8245,-85.8533,3.46,82,7,0.89,US,1682233613
393,el calafate,-50.3408,-72.2768,7.14,88,100,6.74,AR,1682233615
394,nobeoka,32.5833,131.6667,18.53,41,68,4.24,JP,1682233617
395,nandigama,16.7833,80.3,37.43,36,5,4.93,IN,1682233620
396,kasson,44.03,-92.7507,0.18,72,100,3.6,US,1682233615
397,hassi messaoud,31.6804,6.0729,19.85,42,4,5.32,DZ,1682233625
398,ulladulla,-35.35,150.4667,18.76,74,97,3.55,AU,1682233628
399,tulsipur,28.131,82.2973,33.02,9,33,5.73,NP,1682233630
400,sol'-iletsk,51.1631,54.9918,12.57,69,85,4.47,RU,1682233633
401,narvik,68.4384,17.4272,-1.33,77,100,1.77,NO,1682233636
402,richfield,44.8833,-93.283,1.66,67,100,3.6,US,1682233638
403,xiuyan,40.2928,123.2744,16.44,13,100,6.61,CN,1682233488
404,nago,26.5881,127.9761,24.47,71,90,5.29,JP,1682233595
405,whistler,50.1164,-122.9695,4.2,99,100,1.35,CA,1682233380
406,sitangkai,4.6628,119.3928,28.95,69,100,0.71,PH,1682233649
407,sinabang,2.4803,96.3801,29.8,68,79,1.65,ID,1682233652
408,tuxpan,19.55,-103.4,19.75,76,53,1.09,MX,1682233654
409,jackson,42.4165,-122.8345,15.93,63,100,2.57,US,1682233478
410,pisco,-13.7,-76.2167,21.03,88,0,3.09,PE,1682233416
411,madang,-5.2246,145.7966,28.83,75,87,3.0,PG,1682233662
412,cabedelo,-6.9811,-34.8339,25.37,74,40,5.9,BR,1682233664
413,kupang,-10.1667,123.5833,33.32,55,20,5.66,ID,1682233667
414,zouerate,22.7187,-12.4521,18.96,57,0,3.87,MR,1682233670
415,st. paul,44.9444,-93.0933,1.88,70,100,4.63,US,1682232979
416,tommot,58.9564,126.2925,1.32,62,100,3.28,RU,1682233675
417,lompoc,34.6391,-120.4579,11.44,91,63,0.45,US,1682233677
418,zaraza,9.3503,-65.3245,24.78,85,94,0.55,VE,1682233680
419,la democracia,14.2308,-90.9472,28.76,87,2,1.72,GT,1682233682
420,matthews,35.1168,-80.7237,9.56,79,0,2.06,US,1682233569
421,vondrozo,-22.8167,47.2833,24.59,74,39,0.89,MG,1682233688
422,lucea,18.451,-78.1736,23.25,72,2,3.74,JM,1682233690
423,ulsteinvik,62.3432,5.8487,6.53,78,100,9.39,NO,1682233693
424,qarazhal,48.0078,70.7903,17.25,14,87,10.06,KZ,1682233696
425,araguaina,-7.1911,-48.2072,21.82,93,100,0.92,BR,1682233698
426,weyburn,49.6668,-103.8511,-4.88,86,57,2.06,CA,1682233559
427,callao,-12.0667,-77.15,25.95,69,75,3.09,PE,1682233704
428,buenavista del norte,28.3746,-16.861,21.08,83,90,4.12,ES,1682233706
429,catemaco,18.4167,-95.1167,23.81,88,100,1.44,MX,1682233709
430,shirochanka,46.6497,38.3978,11.76,70,40,2.54,RU,1682233711
431,rio preto da eva,-2.6994,-59.6997,22.1,100,100,0.84,BR,1682233714
432,yerofey pavlovich,53.9667,121.9667,2.82,34,100,3.98,RU,1682233717
433,nushki,29.5542,66.0215,29.81,4,22,3.4,PK,1682233719
434,utrik,11.2278,169.8474,27.19,76,99,8.53,MH,1682233722
435,sinop,41.7711,34.8709,8.24,67,100,1.87,TR,1682233724
436,magadan,59.5667,150.8,1.18,59,100,6.01,RU,1682233727
437,broome,42.2506,-75.833,9.81,94,100,2.57,US,1682233730
438,la ronge,55.1001,-105.2842,-3.29,78,8,2.5,CA,1682233732
439,minas de marcona,-15.2119,-75.1103,16.92,83,77,3.33,PE,1682233735
440,tamanrasset,22.785,5.5228,20.95,14,0,1.54,DZ,1682233737
441,namibe,-15.1961,12.1522,25.62,66,85,3.72,AO,1682233739
442,brigantine,39.4101,-74.3646,15.11,97,100,2.06,US,1682233743
443,cururupu,-1.8283,-44.8683,23.91,96,100,1.15,BR,1682233745
444,puerto deseado,-47.7503,-65.8938,13.64,39,65,9.32,AR,1682233748
445,kharp,66.8014,65.8081,0.39,100,100,6.35,RU,1682233751
446,gaspra,44.4333,34.1,12.17,72,19,2.78,UA,1682233753
447,al jawf,29.5,38.75,25.32,26,84,0.9,SA,1682233756
448,mwinilunga,-11.7358,24.4293,22.19,70,100,2.8,ZM,1682233758
449,illizi,26.4833,8.4667,22.9,30,11,5.2,DZ,1682233761
450,tocopilla,-22.092,-70.1979,19.43,78,0,2.14,CL,1682233764
451,vuktyl,63.8567,57.3094,-0.33,87,100,6.2,RU,1682233766
452,selfoss,63.9331,-20.9971,2.76,80,47,0.88,IS,1682233769
453,neyriz,29.1988,54.3278,23.59,19,4,0.98,IR,1682233772
454,sao domingos do prata,-19.865,-42.9683,17.53,94,100,0.88,BR,1682233775
455,nabire,-3.3667,135.4833,29.38,71,42,2.02,ID,1682233777
456,bolobo,-2.1667,16.2333,24.24,84,100,1.32,CD,1682233780
457,el triunfo,-1.9333,-79.9667,24.02,98,100,0.34,EC,1682233782
458,island harbour,50.724,-1.2758,10.64,91,100,0.89,GB,1682233785
459,livorno,43.2333,10.5833,18.77,71,58,2.2,IT,1682233787
460,nambour,-26.6333,152.95,23.25,75,87,2.68,AU,1682233790
461,hosanagara,13.9167,75.0667,36.74,17,9,2.29,IN,1682233792
462,biltine,14.5333,20.9167,34.16,10,55,4.0,TD,1682233795
463,guijuelo,40.5576,-5.6707,10.92,68,1,0.72,ES,1682233798
464,colac,-38.3333,143.5833,16.21,60,0,3.15,AU,1682233510
465,amble,55.3333,-1.5833,7.91,82,40,2.57,GB,1682233803
466,urzhar,47.093,81.6294,13.99,30,66,3.87,KZ,1682233806
467,vrontados,38.4089,26.1328,17.92,82,20,3.6,GR,1682233809
468,caleta olivia,-46.4393,-67.5281,15.33,34,53,9.67,AR,1682233812
469,geraldton,-28.7667,114.6,27.23,50,0,6.17,AU,1682233815
470,rongelap,11.1635,166.8941,27.1,82,98,8.69,MH,1682233817
471,devrekani,41.603,33.8392,9.17,58,100,1.13,TR,1682233821
472,mombaca,-5.7431,-39.6275,18.39,90,78,0.8,BR,1682233597
473,bandar labuan,5.2888,115.2692,30.15,68,10,4.78,MY,1682233826
474,huancavelica,-12.7667,-74.9833,0.22,88,25,0.83,PE,1682233829
475,qiqihar,47.3408,123.9672,11.5,10,100,6.83,CN,1682233831
476,mejit,10.2753,170.8646,27.32,80,100,8.92,MH,1682233834
477,lazaro cardenas,17.9583,-102.2,24.21,82,91,0.64,MX,1682233836
478,soure,-0.7167,-48.5233,25.53,86,100,3.36,BR,1682233812
479,sakakah,29.9697,40.2064,28.46,23,100,4.21,SA,1682233751
480,kiruna,67.8557,20.2251,-4.49,54,0,1.54,SE,1682233844
481,jiazi,22.8779,116.067,24.04,80,89,4.42,CN,1682233846
482,orai,25.9833,79.4667,33.37,14,100,1.06,IN,1682233849
483,mehtar lam,34.6714,70.2094,25.97,14,0,2.1,AF,1682233851
484,salym,60.0625,71.4789,7.98,90,100,3.33,RU,1682233854
485,south hedland,-20.4089,118.5983,32.96,33,6,7.72,AU,1682233856
486,mana,5.6592,-53.7767,23.92,93,100,2.57,GF,1682233859
487,onguday,50.75,86.15,9.87,38,33,0.76,RU,1682233861
488,oamaru,-45.0784,170.9801,14.1,79,18,1.1,NZ,1682233864
489,ta`u,-14.2336,-169.5144,27.33,78,27,4.01,AS,1682233867
490,lima,-12.0432,-77.0282,24.94,65,75,3.09,PE,1682233537
491,podporozh'ye,60.9112,34.1706,9.31,68,100,0.65,RU,1682233872
492,puerto madero,14.7208,-92.4215,25.11,100,0,0.0,MX,1682233874
493,myeik,12.4333,98.6,32.99,56,19,4.88,MM,1682233877
494,shemordan,56.1856,50.3972,13.97,36,11,4.48,RU,1682233879
495,yuzhno-kurilsk,44.0306,145.8556,1.61,91,43,4.7,RU,1682233883
496,sharypovo,55.5403,89.2008,8.88,38,56,0.57,RU,1682233886
497,barra,-11.0894,-43.1417,22.12,72,100,2.77,BR,1682233888
498,challapata,-18.9,-66.7667,6.4,63,31,1.2,BO,1682233891
499,cherdyn',60.403,56.4787,7.7,72,100,4.75,RU,1682233893
500,fitzgerald,31.7149,-83.2526,11.79,82,0,0.0,US,1682233896
501,ulety,51.3572,112.4849,7.2,16,78,5.11,RU,1682233898
502,tromso,69.6496,18.957,-2.57,80,75,4.63,NO,1682233901
503,anatuya,-28.4606,-62.8347,17.76,59,100,2.55,AR,1682233903
504,leninskoye,41.7589,69.3864,24.75,20,75,2.3,KZ,1682233906
505,lodja,-3.4833,23.4333,21.62,98,100,0.8,CD,1682233909
506,massawa,15.6097,39.45,31.04,66,65,2.98,ER,1682233911
507,zherdevka,51.8486,41.4606,13.67,59,10,4.06,RU,1682233914
508,dame-marie,18.5667,-74.4167,23.82,78,9,4.03,HT,1682233916
509,isangel,-19.55,169.2667,26.17,79,14,3.1,VU,1682233919
510,kamphaeng phet,16.25,99.5,40.99,22,0,5.24,TH,1682233921
511,sesheke,-17.4759,24.2968,27.22,41,86,2.7,ZM,1682233924
512,loa janan,-0.583,117.095,28.25,81,100,1.89,ID,1682233926
513,chonchi,-42.6128,-73.8092,4.56,93,100,0.48,CL,1682233929
514,talcahuano,-36.7167,-73.1167,8.82,100,20,2.06,CL,1682233931
515,humaita,-7.5061,-63.0208,22.53,100,100,0.81,BR,1682233934
516,puerto penasco,31.3167,-113.5333,20.51,46,47,1.79,MX,1682233937
517,lyubinskiy,55.1542,72.6925,15.82,27,100,9.44,RU,1682233940
518,vadso,70.0744,29.7487,-0.91,69,75,14.4,NO,1682233943
519,nacala,-14.5428,40.6728,29.62,70,20,4.12,MZ,1682233945
520,xining,36.6167,101.7667,8.98,44,100,2.71,CN,1682233949
521,east london,-33.0153,27.9116,19.26,48,100,1.88,ZA,1682233951
522,hell-ville,-13.4,48.2667,26.99,77,85,1.17,MG,1682233954
523,kegen,43.0197,79.2203,13.57,24,4,2.66,KZ,1682233957
524,valle del guamuez,0.4525,-76.9192,21.51,98,100,1.48,CO,1682233959
525,damara,4.9608,18.7035,25.39,65,100,2.67,CF,1682233962
526,nova olinda do norte,-3.8881,-59.0942,22.15,100,100,0.74,BR,1682233965
527,labuan,5.2767,115.2417,29.95,69,11,4.89,MY,1682233967
528,wotho,10.1657,166.0102,27.29,82,100,8.66,MH,1682233970
529,praia da vitoria,38.7333,-27.0667,17.18,90,100,7.94,PT,1682233972
530,mbuguni,-3.5667,36.95,21.96,78,100,2.55,TZ,1682233975
531,inhambane,-23.865,35.3833,25.83,68,7,3.6,MZ,1682233977
532,adam,22.3756,57.5233,33.0,35,81,2.29,OM,1682233980
533,mount gambier,-37.8333,140.7667,18.11,63,0,2.46,AU,1682233983
534,shamakhi,40.6314,48.6414,18.27,52,7,3.59,AZ,1682233985
535,kirensk,57.7853,108.1119,3.48,41,100,1.96,RU,1682233988
536,wewak,-3.5534,143.6268,28.54,72,7,2.08,PG,1682233992
537,saint-francois,46.4154,3.9054,8.71,100,40,1.03,FR,1682233994
538,ambato boeny,-16.4667,46.7167,30.43,64,28,1.18,MG,1682233997
539,acarau,-2.8856,-40.12,23.71,89,100,4.31,BR,1682234000
540,lusambo,-4.9667,23.45,23.1,95,100,1.28,CD,1682234002
541,kanniyakumari,8.0833,77.5667,31.36,68,27,5.19,IN,1682234005
542,pavilosta,56.8879,21.1859,13.95,80,7,4.98,LV,1682234008
543,apac,1.9756,32.5386,19.36,97,100,2.08,UG,1682234010
544,ponta grossa,-25.095,-50.1619,10.23,96,11,1.79,BR,1682234013
545,new norfolk,-42.7826,147.0587,14.84,41,18,0.61,AU,1682234015
546,nizhniy kuranakh,58.8353,125.4869,0.77,64,100,2.92,RU,1682234018
547,coahuayana de hidalgo,18.7,-103.6583,24.03,82,100,0.45,MX,1682234021
548,chipinge,-20.1883,32.6236,24.69,39,5,1.24,ZW,1682234023
549,toliara,-23.35,43.6667,26.63,59,80,1.56,MG,1682234025
550,blackwater,-23.5833,148.8833,26.92,34,100,6.86,AU,1682234028
551,krasnyy chikoy,50.3643,108.7512,9.28,18,94,3.81,RU,1682234030
552,novyy rogachik,48.6768,44.0608,11.5,76,100,3.98,RU,1682234033
553,kruisfontein,-34.0033,24.7314,19.38,43,17,2.83,ZA,1682234035
554,belzyce,51.1741,22.2803,15.39,56,6,4.8,PL,1682234038
555,maceio,-9.6658,-35.7353,22.69,94,20,1.54,BR,1682234040
556,villamontes,-21.25,-63.5,18.62,95,100,1.0,BO,1682234043
557,bin yauri,10.7823,4.8114,29.72,57,4,4.58,NG,1682234046
558,lata,40.1629,-8.3327,13.37,89,9,0.66,PT,1682234048
559,ketchikan,55.3422,-131.6461,7.99,93,100,2.57,US,1682234051
560,ventura,34.4667,-119.0176,14.01,71,100,3.06,US,1682234054
561,wanxian,30.8039,108.3897,12.23,84,100,3.05,CN,1682234056
562,burang,30.25,81.1667,-1.61,48,2,1.83,CN,1682233932
563,colonia,50.9333,6.95,13.87,82,0,3.09,DE,1682233954
564,bhan,26.5583,67.7214,35.61,9,1,2.4,PK,1682234064
565,strezhevoy,60.7333,77.5889,3.59,98,100,2.22,RU,1682234067
566,margate,51.3813,1.3862,12.05,85,100,2.24,GB,1682233921
567,cidade velha,14.9167,-23.6167,21.26,73,20,4.63,CV,1682234072
568,kiunga,-6.1219,141.2906,26.23,91,100,2.01,PG,1682234076
569,kisangani,0.5167,25.2,20.45,100,100,0.99,CD,1682233985
570,zavodskoy,43.4597,132.2922,11.77,16,97,8.0,RU,1682234082
571,howard springs,-12.497,131.047,32.95,42,11,3.07,AU,1682234084
572,leava,-14.3,-178.1667,28.06,76,35,6.16,WF,1682234087
573,marsh harbour,26.5412,-77.0636,23.48,73,28,3.83,BS,1682234089
574,kokshetau,53.2775,69.3883,12.18,35,0,11.0,KZ,1682234091
575,dzhambeyty,50.2536,52.595,15.98,55,29,6.69,KZ,1682234094
576,babruysk,53.15,29.2333,13.83,58,100,1.66,BY,1682234096
577,korla,41.7597,86.1469,11.51,49,4,12.67,CN,1682234099
578,gorontalo,0.5412,123.0595,30.07,72,100,1.58,ID,1682234101
579,misratah,32.3754,15.0925,17.27,80,0,7.18,LY,1682234105
580,whangarei,-35.7317,174.3239,15.76,94,48,1.51,NZ,1682234107
581,saint-philippe,-21.3585,55.7679,28.77,74,99,3.55,RE,1682234110
582,jalai nur,49.45,117.7,7.92,13,7,7.39,CN,1682234113
583,antofagasta,-23.65,-70.4,16.6,88,6,4.19,CL,1682233980
584,gandajika,-6.75,23.95,23.23,87,100,0.45,CD,1682234118
585,royan,45.6285,-1.0281,13.79,83,100,10.5,FR,1682234120
586,narasannapeta,18.4167,84.05,35.64,32,62,3.21,IN,1682234125
587,kitimat,54.0524,-128.6534,7.21,26,100,0.2,CA,1682234128
588,newport,51.5877,-2.9984,9.69,91,51,2.2,GB,1682234131
